[{"service_name":"quint","service_type":"plumbering","city":"Delhi","location":{"latitude":29.436906206440096,"lontitude":77.7206837164075}},{"service_name":"branchlet","service_type":"plumbering","city":"Delhi","location":{"latitude":29.414214801174943,"lontitude":78.04206196611625}},{"service_name":"parlor_game","service_type":"plumbering","city":"Delhi","location":{"latitude":29.49371087692738,"lontitude":77.83076791489756}},{"service_name":"ethchlorvynol","service_type":"plumbering","city":"Delhi","location":{"latitude":28.719381437406774,"lontitude":77.55832362660912}},{"service_name":"giant_taro","service_type":"plumbering","city":"Delhi","location":{"latitude":29.076373885980605,"lontitude":77.87263004911964}},{"service_name":"hummingbird_moth","service_type":"plumbering","city":"Delhi","location":{"latitude":29.030188140242096,"lontitude":77.88383863078721}},{"service_name":"automotive_engineering","service_type":"plumbering","city":"Delhi","location":{"latitude":28.675292116223005,"lontitude":77.50845166982273}},{"service_name":"genus_antidorcas","service_type":"plumbering","city":"Delhi","location":{"latitude":29.033534739189992,"lontitude":77.51173883908645}},{"service_name":"blephilia_hirsuta","service_type":"plumbering","city":"Delhi","location":{"latitude":28.928771406799193,"lontitude":78.04606072958426}},{"service_name":"turret","service_type":"plumbering","city":"Delhi","location":{"latitude":28.849813326200366,"lontitude":78.09805757082586}},{"service_name":"heteroptera","service_type":"hotel","city":"Delhi","location":{"latitude":28.62074563933237,"lontitude":78.09681160205007}},{"service_name":"snitcher","service_type":"hotel","city":"Delhi","location":{"latitude":29.02988565816107,"lontitude":77.63672574770595}},{"service_name":"scheme","service_type":"hotel","city":"Delhi","location":{"latitude":28.90802446826632,"lontitude":77.9085403533654}},{"service_name":"glacial_boulder","service_type":"hotel","city":"Delhi","location":{"latitude":28.75820711750295,"lontitude":78.07532137455387}},{"service_name":"foeniculum_vulgare","service_type":"hotel","city":"Delhi","location":{"latitude":28.928063236410004,"lontitude":77.51623060296917}},{"service_name":"finnic","service_type":"hotel","city":"Delhi","location":{"latitude":29.466268433054765,"lontitude":77.97132393907405}},{"service_name":"rock_bass","service_type":"hotel","city":"Delhi","location":{"latitude":29.4298335894922,"lontitude":78.14715366970097}},{"service_name":"president_benjamin_harrison","service_type":"hotel","city":"Delhi","location":{"latitude":29.264991708128655,"lontitude":77.78462380576372}},{"service_name":"encoding","service_type":"hotel","city":"Delhi","location":{"latitude":28.61132265843748,"lontitude":78.1782112546241}},{"service_name":"aaa","service_type":"hotel","city":"Delhi","location":{"latitude":29.501937216200886,"lontitude":77.71176245377983}},{"service_name":"anise_hyssop","service_type":"hospital","city":"Delhi","location":{"latitude":28.97376068160562,"lontitude":77.99933360276586}},{"service_name":"president_theodore_roosevelt","service_type":"hospital","city":"Delhi","location":{"latitude":29.347641167719832,"lontitude":77.449689114004}},{"service_name":"frederick_william_ii","service_type":"hospital","city":"Delhi","location":{"latitude":29.054380800618667,"lontitude":78.20855699666906}},{"service_name":"tardigrada","service_type":"hospital","city":"Delhi","location":{"latitude":29.187409671305975,"lontitude":78.21427298702302}},{"service_name":"themis","service_type":"hospital","city":"Delhi","location":{"latitude":28.883589432304465,"lontitude":77.55731961218603}},{"service_name":"chondrus_crispus","service_type":"hospital","city":"Delhi","location":{"latitude":29.60459133999355,"lontitude":77.48673376378049}},{"service_name":"olive_brown","service_type":"hospital","city":"Delhi","location":{"latitude":28.667511440908473,"lontitude":77.90514859269919}},{"service_name":"genus_callitris","service_type":"hospital","city":"Delhi","location":{"latitude":28.951439357014365,"lontitude":77.31287984590827}},{"service_name":"cruise_liner","service_type":"hospital","city":"Delhi","location":{"latitude":29.324183452932992,"lontitude":77.6861474393962}},{"service_name":"dowel_pin","service_type":"hospital","city":"Delhi","location":{"latitude":28.614922747037625,"lontitude":77.9749875225556}},{"service_name":"coaching","service_type":"library","city":"Delhi","location":{"latitude":29.01315522613424,"lontitude":77.76764256168092}},{"service_name":"arctic_willow","service_type":"library","city":"Delhi","location":{"latitude":29.60336964686646,"lontitude":78.03888887958414}},{"service_name":"gunner","service_type":"library","city":"Delhi","location":{"latitude":28.76514142295929,"lontitude":77.65749012650262}},{"service_name":"ascendancy","service_type":"library","city":"Delhi","location":{"latitude":29.062090464046843,"lontitude":77.8430864962181}},{"service_name":"brainpan","service_type":"library","city":"Delhi","location":{"latitude":29.42510735544888,"lontitude":77.60318765467521}},{"service_name":"solanum_crispum","service_type":"library","city":"Delhi","location":{"latitude":29.174547221381843,"lontitude":77.33087109262061}},{"service_name":"suez","service_type":"library","city":"Delhi","location":{"latitude":29.323346900212698,"lontitude":77.23878004541487}},{"service_name":"hosni_mubarak","service_type":"library","city":"Delhi","location":{"latitude":28.613881565114532,"lontitude":77.43324990462686}},{"service_name":"elegist","service_type":"library","city":"Delhi","location":{"latitude":28.954338149929555,"lontitude":78.21541821709408}},{"service_name":"billy_buttons","service_type":"library","city":"Delhi","location":{"latitude":28.895404191056976,"lontitude":77.70505335849019}},{"service_name":"slipover","service_type":"mobile_services","city":"Delhi","location":{"latitude":29.197601766256092,"lontitude":78.04819967623098}},{"service_name":"vice_chancellor","service_type":"mobile_services","city":"Delhi","location":{"latitude":29.093484375233,"lontitude":77.36370218699939}},{"service_name":"irishwoman","service_type":"mobile_services","city":"Delhi","location":{"latitude":29.250335648788493,"lontitude":77.49559769153689}},{"service_name":"corelli","service_type":"mobile_services","city":"Delhi","location":{"latitude":29.150844538801607,"lontitude":77.3296607174606}},{"service_name":"incompetency","service_type":"mobile_services","city":"Delhi","location":{"latitude":29.219008884092023,"lontitude":77.76367024648357}},{"service_name":"endoprocta","service_type":"mobile_services","city":"Delhi","location":{"latitude":29.395966458935753,"lontitude":77.73969252401221}},{"service_name":"spanish_lime","service_type":"mobile_services","city":"Delhi","location":{"latitude":28.94182050252697,"lontitude":77.3310816173911}},{"service_name":"vertical_circle","service_type":"mobile_services","city":"Delhi","location":{"latitude":29.549828897689466,"lontitude":77.39041498657666}},{"service_name":"delicious","service_type":"mobile_services","city":"Delhi","location":{"latitude":29.561120463294824,"lontitude":78.00803395703191}},{"service_name":"machine_language","service_type":"mobile_services","city":"Delhi","location":{"latitude":28.695898107124226,"lontitude":77.91888383947348}},{"service_name":"theater_ticket","service_type":"plumbering","city":"Kolkata","location":{"latitude":22.73587073500735,"lontitude":89.30089590278416}},{"service_name":"battledore_and_shuttlecock","service_type":"plumbering","city":"Kolkata","location":{"latitude":23.03602202435659,"lontitude":88.78252622405448}},{"service_name":"incidence","service_type":"plumbering","city":"Kolkata","location":{"latitude":23.37547519498729,"lontitude":89.21445811612209}},{"service_name":"red_sanders","service_type":"plumbering","city":"Kolkata","location":{"latitude":22.82402742838379,"lontitude":89.15377584929794}},{"service_name":"plumber","service_type":"plumbering","city":"Kolkata","location":{"latitude":23.160140139668002,"lontitude":88.55807655429176}},{"service_name":"cocktail_party","service_type":"plumbering","city":"Kolkata","location":{"latitude":22.87519728594029,"lontitude":88.6801840057136}},{"service_name":"european_nuthatch","service_type":"plumbering","city":"Kolkata","location":{"latitude":23.556320679208078,"lontitude":88.39521229156256}},{"service_name":"negotiation","service_type":"plumbering","city":"Kolkata","location":{"latitude":22.798118038586068,"lontitude":89.2645131814999}},{"service_name":"silver_spoon","service_type":"plumbering","city":"Kolkata","location":{"latitude":23.332077406978925,"lontitude":88.6910708616589}},{"service_name":"spanish_cedar","service_type":"plumbering","city":"Kolkata","location":{"latitude":22.58366577411613,"lontitude":88.46090999568403}},{"service_name":"lally","service_type":"hotel","city":"Kolkata","location":{"latitude":22.651928196798927,"lontitude":88.48552120627319}},{"service_name":"field_hockey_ball","service_type":"hotel","city":"Kolkata","location":{"latitude":22.817022607985578,"lontitude":88.45722287313725}},{"service_name":"consumer_finance_company","service_type":"hotel","city":"Kolkata","location":{"latitude":23.2031815256247,"lontitude":88.87451396890663}},{"service_name":"olfactory_impairment","service_type":"hotel","city":"Kolkata","location":{"latitude":23.473018951545864,"lontitude":88.84064520602855}},{"service_name":"ectoderm","service_type":"hotel","city":"Kolkata","location":{"latitude":22.782269742603727,"lontitude":88.70241181042933}},{"service_name":"guacharo","service_type":"hotel","city":"Kolkata","location":{"latitude":22.99185250974532,"lontitude":88.6360175500248}},{"service_name":"satori","service_type":"hotel","city":"Kolkata","location":{"latitude":23.49347083087528,"lontitude":88.4113065090752}},{"service_name":"protea_cynaroides","service_type":"hotel","city":"Kolkata","location":{"latitude":23.440448049030106,"lontitude":89.30940153859086}},{"service_name":"calcium_sulfate","service_type":"hotel","city":"Kolkata","location":{"latitude":22.97121889618054,"lontitude":89.28600793428262}},{"service_name":"house_fly","service_type":"hotel","city":"Kolkata","location":{"latitude":23.156768600758376,"lontitude":89.36569117910946}},{"service_name":"chromatic_vision","service_type":"hospital","city":"Kolkata","location":{"latitude":22.66821035619083,"lontitude":88.67196450372919}},{"service_name":"theodor_seuss_geisel","service_type":"hospital","city":"Kolkata","location":{"latitude":23.181608810227736,"lontitude":89.1914415656508}},{"service_name":"samba","service_type":"hospital","city":"Kolkata","location":{"latitude":22.969410882651484,"lontitude":88.72917756038687}},{"service_name":"book_of_exodus","service_type":"hospital","city":"Kolkata","location":{"latitude":22.962131522049905,"lontitude":88.98372086860225}},{"service_name":"nickname","service_type":"hospital","city":"Kolkata","location":{"latitude":22.735662155494538,"lontitude":88.57740328569464}},{"service_name":"audio_cd","service_type":"hospital","city":"Kolkata","location":{"latitude":22.919101002974873,"lontitude":88.96103318288147}},{"service_name":"gerhard_kremer","service_type":"hospital","city":"Kolkata","location":{"latitude":22.707735048026347,"lontitude":89.28202656957843}},{"service_name":"sodium_fluoride","service_type":"hospital","city":"Kolkata","location":{"latitude":22.81935001765087,"lontitude":89.26792575525565}},{"service_name":"job_application","service_type":"hospital","city":"Kolkata","location":{"latitude":22.94333417796965,"lontitude":89.34078005444056}},{"service_name":"leyte_invasion","service_type":"hospital","city":"Kolkata","location":{"latitude":22.71921921155666,"lontitude":89.03828901532432}},{"service_name":"sully","service_type":"library","city":"Kolkata","location":{"latitude":23.489111111389953,"lontitude":89.15555621610332}},{"service_name":"malaysian","service_type":"library","city":"Kolkata","location":{"latitude":23.41247005644913,"lontitude":88.83984979538198}},{"service_name":"pisser","service_type":"library","city":"Kolkata","location":{"latitude":23.552384750426274,"lontitude":89.31403203157093}},{"service_name":"genus_chrysobalanus","service_type":"library","city":"Kolkata","location":{"latitude":22.643514917953347,"lontitude":88.91831768843959}},{"service_name":"suck","service_type":"library","city":"Kolkata","location":{"latitude":22.95234435768273,"lontitude":88.92270056566755}},{"service_name":"ram_disk","service_type":"library","city":"Kolkata","location":{"latitude":23.13511453734367,"lontitude":88.9603043524174}},{"service_name":"ablative_absolute","service_type":"library","city":"Kolkata","location":{"latitude":23.42131467043353,"lontitude":88.78949843059917}},{"service_name":"gorilla_gorilla_gorilla","service_type":"library","city":"Kolkata","location":{"latitude":22.96750899710257,"lontitude":89.2434949614702}},{"service_name":"reef_squirrelfish","service_type":"library","city":"Kolkata","location":{"latitude":22.848382275113096,"lontitude":88.6742751317975}},{"service_name":"ableism","service_type":"library","city":"Kolkata","location":{"latitude":22.960757621573244,"lontitude":88.77563811207052}},{"service_name":"watch_night","service_type":"mobile_services","city":"Kolkata","location":{"latitude":23.490610055285888,"lontitude":88.65811232959027}},{"service_name":"sir_thomas_lawrence","service_type":"mobile_services","city":"Kolkata","location":{"latitude":23.537815499947122,"lontitude":89.27535550718517}},{"service_name":"passenger_van","service_type":"mobile_services","city":"Kolkata","location":{"latitude":22.85838915549354,"lontitude":88.58452144245447}},{"service_name":"order_sirenia","service_type":"mobile_services","city":"Kolkata","location":{"latitude":22.875238809304133,"lontitude":88.73660321231289}},{"service_name":"instrument_landing","service_type":"mobile_services","city":"Kolkata","location":{"latitude":22.690389389085766,"lontitude":88.63132849003458}},{"service_name":"quadroon","service_type":"mobile_services","city":"Kolkata","location":{"latitude":22.794419779938785,"lontitude":89.16312075250816}},{"service_name":"bufo_microscaphus","service_type":"mobile_services","city":"Kolkata","location":{"latitude":23.007350938957316,"lontitude":88.74699564231594}},{"service_name":"metabolic_rate","service_type":"mobile_services","city":"Kolkata","location":{"latitude":22.663583389436038,"lontitude":88.6569489050072}},{"service_name":"goldsmith","service_type":"mobile_services","city":"Kolkata","location":{"latitude":22.942395125920623,"lontitude":88.63343362961662}},{"service_name":"propagandist","service_type":"mobile_services","city":"Kolkata","location":{"latitude":23.101240429833737,"lontitude":89.14364770886398}},{"service_name":"mangrove","service_type":"plumbering","city":"Bangalore","location":{"latitude":13.641060922584257,"lontitude":78.12237691052108}},{"service_name":"enthusiasm","service_type":"plumbering","city":"Bangalore","location":{"latitude":13.26092183940587,"lontitude":77.66990350507005}},{"service_name":"tribonemaceae","service_type":"plumbering","city":"Bangalore","location":{"latitude":13.125153084228579,"lontitude":78.54575369933224}},{"service_name":"moonie","service_type":"plumbering","city":"Bangalore","location":{"latitude":13.059248046236577,"lontitude":77.9902662972083}},{"service_name":"crotalus_viridis","service_type":"plumbering","city":"Bangalore","location":{"latitude":13.419818629496351,"lontitude":77.98316697801256}},{"service_name":"mental_balance","service_type":"plumbering","city":"Bangalore","location":{"latitude":13.534583816207467,"lontitude":78.3553760132352}},{"service_name":"buckboard","service_type":"plumbering","city":"Bangalore","location":{"latitude":13.491196059950019,"lontitude":77.6494468232068}},{"service_name":"medical_specialist","service_type":"plumbering","city":"Bangalore","location":{"latitude":13.334815821072192,"lontitude":77.68853613820482}},{"service_name":"moth_bean","service_type":"plumbering","city":"Bangalore","location":{"latitude":13.200770629790744,"lontitude":77.71359507308715}},{"service_name":"hydrocolloid","service_type":"plumbering","city":"Bangalore","location":{"latitude":13.238993918318496,"lontitude":78.18529931586102}},{"service_name":"nicker","service_type":"hotel","city":"Bangalore","location":{"latitude":13.21588035997828,"lontitude":78.16801913211094}},{"service_name":"dowsing_rod","service_type":"hotel","city":"Bangalore","location":{"latitude":13.888988530018562,"lontitude":78.5142607824204}},{"service_name":"jean_baptiste_de_lamarck","service_type":"hotel","city":"Bangalore","location":{"latitude":13.024127130331292,"lontitude":78.34803118818512}},{"service_name":"magnesium_bicarbonate","service_type":"hotel","city":"Bangalore","location":{"latitude":13.29439294806155,"lontitude":78.32997797034042}},{"service_name":"nicol_prism","service_type":"hotel","city":"Bangalore","location":{"latitude":13.961581323872075,"lontitude":78.09639904366688}},{"service_name":"morchella_crassipes","service_type":"hotel","city":"Bangalore","location":{"latitude":13.86067736233839,"lontitude":77.89285875121254}},{"service_name":"coatrack","service_type":"hotel","city":"Bangalore","location":{"latitude":13.33502543346685,"lontitude":78.09350423892747}},{"service_name":"bronchial_tube","service_type":"hotel","city":"Bangalore","location":{"latitude":13.652784049925131,"lontitude":78.5131479270208}},{"service_name":"zanzibar_copal","service_type":"hotel","city":"Bangalore","location":{"latitude":12.979677872077119,"lontitude":77.69918495749482}},{"service_name":"calm_air","service_type":"hotel","city":"Bangalore","location":{"latitude":13.144407436361128,"lontitude":77.80957898923127}},{"service_name":"public_holiday","service_type":"hospital","city":"Bangalore","location":{"latitude":13.324787777455441,"lontitude":78.01229512263863}},{"service_name":"skin_cell","service_type":"hospital","city":"Bangalore","location":{"latitude":13.219988705760827,"lontitude":78.31980356722377}},{"service_name":"horse_nettle","service_type":"hospital","city":"Bangalore","location":{"latitude":13.717337990379754,"lontitude":78.091262903101}},{"service_name":"ribwort","service_type":"hospital","city":"Bangalore","location":{"latitude":13.57666674481748,"lontitude":77.99315108178735}},{"service_name":"cause_of_death","service_type":"hospital","city":"Bangalore","location":{"latitude":13.312103620003063,"lontitude":78.27950291081787}},{"service_name":"persepolis","service_type":"hospital","city":"Bangalore","location":{"latitude":13.42471401841151,"lontitude":78.30862686058565}},{"service_name":"astronium_fraxinifolium","service_type":"hospital","city":"Bangalore","location":{"latitude":12.991254761925088,"lontitude":77.90630428201247}},{"service_name":"madagascar","service_type":"hospital","city":"Bangalore","location":{"latitude":12.987917814938744,"lontitude":78.12882327749114}},{"service_name":"pakchoi","service_type":"hospital","city":"Bangalore","location":{"latitude":13.179604100665152,"lontitude":77.6255634179576}},{"service_name":"bermudan_rig","service_type":"hospital","city":"Bangalore","location":{"latitude":13.761820255640815,"lontitude":78.08076660965868}},{"service_name":"biotic_community","service_type":"library","city":"Bangalore","location":{"latitude":13.453973205855705,"lontitude":77.67877176749944}},{"service_name":"cambric_tea","service_type":"library","city":"Bangalore","location":{"latitude":13.324970042986468,"lontitude":78.24283557310372}},{"service_name":"verapamil","service_type":"library","city":"Bangalore","location":{"latitude":13.449638109334652,"lontitude":78.49871384592834}},{"service_name":"plant_tissue","service_type":"library","city":"Bangalore","location":{"latitude":13.501306605764015,"lontitude":77.91064673593874}},{"service_name":"honey_crisp","service_type":"library","city":"Bangalore","location":{"latitude":12.991283741838407,"lontitude":77.58075281907799}},{"service_name":"kosteletzya","service_type":"library","city":"Bangalore","location":{"latitude":13.089721275001402,"lontitude":78.5584789148105}},{"service_name":"gerund","service_type":"library","city":"Bangalore","location":{"latitude":13.62601149863447,"lontitude":78.38349468779015}},{"service_name":"tending","service_type":"library","city":"Bangalore","location":{"latitude":13.461488656633588,"lontitude":77.85709097592158}},{"service_name":"casquetel","service_type":"library","city":"Bangalore","location":{"latitude":13.942657035341487,"lontitude":78.34964983088297}},{"service_name":"cakile","service_type":"library","city":"Bangalore","location":{"latitude":13.852201339593215,"lontitude":78.12240047406645}},{"service_name":"comte_de_rochambeau","service_type":"mobile_services","city":"Bangalore","location":{"latitude":12.987699009213214,"lontitude":78.21219422141414}},{"service_name":"ground_floor","service_type":"mobile_services","city":"Bangalore","location":{"latitude":13.548306047588845,"lontitude":77.6135073145381}},{"service_name":"lovingness","service_type":"mobile_services","city":"Bangalore","location":{"latitude":13.818573826222003,"lontitude":78.28638034714858}},{"service_name":"git","service_type":"mobile_services","city":"Bangalore","location":{"latitude":13.94232940532133,"lontitude":78.23568841361657}},{"service_name":"class_feeling","service_type":"mobile_services","city":"Bangalore","location":{"latitude":13.812514738388373,"lontitude":77.60175681884567}},{"service_name":"blow","service_type":"mobile_services","city":"Bangalore","location":{"latitude":13.887085266820629,"lontitude":78.19676322172141}},{"service_name":"feast_of_the_circumcision","service_type":"mobile_services","city":"Bangalore","location":{"latitude":13.516756338756643,"lontitude":77.69341355708163}},{"service_name":"recorder","service_type":"mobile_services","city":"Bangalore","location":{"latitude":13.602101411995204,"lontitude":78.47254841225003}},{"service_name":"jumping_orchid","service_type":"mobile_services","city":"Bangalore","location":{"latitude":13.809476912895239,"lontitude":77.87102176143901}},{"service_name":"shuttle_diplomacy","service_type":"mobile_services","city":"Bangalore","location":{"latitude":13.506347044413461,"lontitude":77.6599892632805}}]